{
  "version": "1.0",
  "campus": "north",
  "description": "UAlberta North Campus building graph for outdoor navigation. Nodes are buildings or landmarks. Edges = walkable connections.",
  "nodes": [
    {"id":"ccis","name":"CCIS","fullName":"Centennial Centre for Interdisciplinary Science","type":"building","lat":53.5215,"lon":-113.526,"connections":["chem","biosci","commons_c"],"ttsPrompt":"CCIS, Centennial Centre for Interdisciplinary Science","aliases":["Centennial Centre for Interdisciplinary Science UAlberta","CCIS University of Alberta"]},
    {"id":"chem","name":"Chemistry","fullName":"Gunning-Lemieux Chemistry Centre","type":"building","lat":53.5212,"lon":-113.524,"connections":["ccis","biosci","commons_c","tory"],"ttsPrompt":"Chemistry building"},
    {"id":"biosci","name":"BioSci","fullName":"Biological Sciences","type":"building","lat":53.522,"lon":-113.524,"connections":["ccis","chem","commons_c"],"ttsPrompt":"Biological Sciences"},
    {"id":"commons_c","name":"Commons C","fullName":"CCIS area intersection","type":"landmark","lat":null,"lon":null,"connections":["ccis","chem","biosci","cab"],"ttsPrompt":"CCIS and Chemistry intersection"},
    {"id":"tory","name":"Tory","fullName":"Henry Marshall Tory Building","type":"building","lat":53.523,"lon":-113.521,"connections":["chem","business","humanities","earth_sciences"],"ttsPrompt":"Tory Building"},
    {"id":"business","name":"Business","fullName":"School of Business","type":"building","lat":53.5235,"lon":-113.5205,"connections":["tory"],"ttsPrompt":"School of Business"},
    {"id":"earth_sciences","name":"Earth Sciences","fullName":"Earth Sciences Building","type":"building","lat":53.5225,"lon":-113.522,"connections":["tory","humanities"],"ttsPrompt":"Earth Sciences"},
    {"id":"humanities","name":"Humanities","fullName":"Humanities Centre","type":"building","lat":53.5238,"lon":-113.523,"connections":["tory","hub","commons_d"],"ttsPrompt":"Humanities Centre"},
    {"id":"hub","name":"HUB","fullName":"HUB Mall","type":"building","lat":53.524,"lon":-113.526,"connections":["humanities","sub","cab"],"ttsPrompt":"HUB Mall","aliases":["HUB Mall University of Alberta"]},
    {"id":"cab","name":"CAB","fullName":"Central Academic Building","type":"building","lat":53.524,"lon":-113.525,"connections":["commons_c","hub","sab","cameron","commons_b"],"ttsPrompt":"CAB, Central Academic Building","aliases":["Central Academic Building University of Alberta","CAB Central Academic Building University of Alberta"]},
    {"id":"commons_b","name":"Alumni Walk Commons","fullName":"Alumni Walk intersection","type":"landmark","lat":null,"lon":null,"connections":["cab","athabasca","sab"],"ttsPrompt":"Alumni Walk, near CAB"},
    {"id":"athabasca","name":"Athabasca Hall","fullName":"Athabasca Hall","type":"building","lat":53.5245,"lon":-113.5265,"connections":["commons_b","pembina"],"ttsPrompt":"Athabasca Hall"},
    {"id":"pembina","name":"Pembina Hall","fullName":"Pembina Hall","type":"building","lat":53.5248,"lon":-113.527,"connections":["athabasca"],"ttsPrompt":"Pembina Hall"},
    {"id":"sab","name":"SAB","fullName":"South Academic Building","type":"building","lat":53.5235,"lon":-113.525,"connections":["cab","commons_b"],"ttsPrompt":"SAB, South Academic Building"},
    {"id":"cameron","name":"Cameron Library","fullName":"Cameron Library","type":"building","lat":53.5245,"lon":-113.5235,"connections":["cab","commons_d","rutherford_south","arts"],"ttsPrompt":"Cameron Library","aliases":["Cameron Library University of Alberta"]},
    {"id":"commons_d","name":"Convocation Commons","fullName":"Convocation Commons","type":"landmark","lat":null,"lon":null,"connections":["cameron","rutherford_north","rutherford_south","arts","humanities"],"ttsPrompt":"Convocation Commons, between Cameron and Rutherford"},
    {"id":"rutherford_north","name":"Rutherford North","fullName":"Rutherford Library North","type":"building","lat":53.525,"lon":-113.5235,"connections":["commons_d","rutherford_south"],"ttsPrompt":"Rutherford Library North"},
    {"id":"rutherford_south","name":"Rutherford South","fullName":"Rutherford Library South","type":"building","lat":53.5242,"lon":-113.5238,"connections":["commons_d","rutherford_north","cameron"],"ttsPrompt":"Rutherford Library South"},
    {"id":"arts","name":"Arts Building","fullName":"Fine Arts Building","type":"building","lat":53.5248,"lon":-113.5225,"connections":["commons_d","fab"],"ttsPrompt":"Arts Building"},
    {"id":"fab","name":"FAB","fullName":"Fine Arts Building","type":"building","lat":53.5245,"lon":-113.5215,"connections":["arts","law"],"ttsPrompt":"Fine Arts Building"},
    {"id":"law","name":"Law Centre","fullName":"Law Centre","type":"building","lat":53.524,"lon":-113.5205,"connections":["fab","telus"],"ttsPrompt":"Law Centre"},
    {"id":"telus","name":"TELUS Centre","fullName":"TELUS International Centre","type":"building","lat":53.5235,"lon":-113.5195,"connections":["law"],"ttsPrompt":"TELUS International Centre"},
    {"id":"etlc","name":"ETLC","fullName":"Engineering Teaching and Learning Complex","type":"building","lat":53.523,"lon":-113.528,"connections":["ecerf","nint","computing_science","commons_a"],"ttsPrompt":"ETLC, Engineering Teaching and Learning Complex","aliases":["Engineering Teaching and Learning Complex University of Alberta","ETLC Engineering Teaching Learning Complex University of Alberta"]},
    {"id":"ecerf","name":"ECERF","fullName":"Electrical and Computer Engineering Research Facility","type":"building","lat":53.5225,"lon":-113.529,"connections":["etlc","nref"],"ttsPrompt":"ECERF"},
    {"id":"nint","name":"NINT","fullName":"National Institute for Nanotechnology","type":"building","lat":53.521,"lon":-113.528,"connections":["etlc","computing_science","commons_a"],"ttsPrompt":"NINT"},
    {"id":"computing_science","name":"Computing Science Centre","fullName":"Computing Science Centre","type":"building","lat":53.522,"lon":-113.5275,"connections":["etlc","nint","commons_a"],"ttsPrompt":"Computing Science Centre"},
    {"id":"commons_a","name":"Discovery Commons","fullName":"Discovery Commons","type":"landmark","lat":null,"lon":null,"connections":["etlc","nint","computing_science","nref"],"ttsPrompt":"Discovery Commons, near ETLC"},
    {"id":"nref","name":"NREF","fullName":"Natural Resources Engineering Facility","type":"building","lat":53.5215,"lon":-113.5285,"connections":["ecerf","gsb","commons_a"],"ttsPrompt":"NREF","aliases":["Natural Resources Engineering Facility University of Alberta"]},
    {"id":"gsb","name":"GSB","fullName":"General Services Building","type":"building","lat":53.522,"lon":-113.527,"connections":["nref","sub"],"ttsPrompt":"General Services Building"},
    {"id":"sub","name":"SUB","fullName":"Students' Union Building","type":"building","lat":53.524,"lon":-113.527,"connections":["hub","gsb"],"ttsPrompt":"SUB, Students' Union Building","aliases":["Students' Union Building University of Alberta","SUB Students Union Building University of Alberta"]},
    {"id":"van_vliet","name":"Van Vliet Complex","fullName":"Van Vliet Complex","type":"building","lat":53.523,"lon":-113.531,"connections":["commons_e"],"ttsPrompt":"Van Vliet Complex","aliases":["Van Vliet Complex University of Alberta"]},
    {"id":"commons_e","name":"Varsity Commons","fullName":"Varsity Commons","type":"landmark","lat":null,"lon":null,"connections":["van_vliet"],"ttsPrompt":"Varsity Commons"},
    {"id":"university_transit","name":"University Transit Centre","fullName":"University Transit Centre Bus Stop","type":"landmark","lat":53.521,"lon":-113.527,"connections":["etlc","nint"],"ttsPrompt":"University Transit Centre, bus stop"}
  ],
  "indoorPaths": {
    "ccis_to_cameron": {"origin":"ccis","destination":"cameron","description":"Indoor QR route via Chem and CAB"},
    "etlc_to_gsb": {"origin":"etlc","destination":"gsb","description":"Indoor QR route ETLC to GSB"},
    "etlc_to_busstop": {"origin":"etlc","destination":"university_transit","description":"Indoor QR route to bus stop"},
    "ccis_to_etlc": {"origin":"ccis","destination":"etlc","description":"Indoor QR route CCIS to ETLC"},
    "etlc_to_nref": {"origin":"etlc","destination":"nref","description":"Indoor QR route ETLC to NREF"}
  }
}
